{
  "type": "FeatureCollection",
  "features": [
    {
      "type": "Feature",
      "properties": {
        "ID": 1,
        "StudyID": 1,
        "Name": "Global Study on Gender Norms, Agency and Innovation in Agricultural Innovation and Natural Resource Management",
        "Contact Name": "Amare Tegbaru",
        "Start Date": 2015,
        "End Date": 2015,
        "Country": "Nigeria",
        "CRP": "HT"
      },
      "geometry": {
        "type": "Point",
        "coordinates": [
          7.416505,
          10.510464
        ]
      }
    },
    {
      "type": "Feature",
      "properties": {
        "ID": 2,
        "StudyID": 2,
        "Name": "Change in gender relations: Examining the managerial and transformative approaches",
        "Contact Name": "Amare Tegbaru",
        "Start Date": 2007,
        "End Date": 2009,
        "Country": "Nigeria",
        "CRP": "HT"
      },
      "geometry": {
        "type": "Point",
        "coordinates": [
          12.978912,
          11.509748
        ]
      }
    },
    {
      "type": "Feature",
      "properties": {
        "ID": 3,
        "StudyID": 4,
        "Name": "Gender and REDD+. Analyzing women?s roles in sub-national initiatives (published, additional paper in process)",
        "Contact Name": "Anne Larson",
        "Start Date": "NULL",
        "End Date": "NULL",
        "Country": "Cameroon",
        "CRP": "FTA"
      },
      "geometry": {
        "type": "Point",
        "coordinates": [
          12.354722,
          7.369722
        ]
      }
    },
    {
      "type": "Feature",
      "properties": {
        "ID": 4,
        "StudyID": 4,
        "Name": "Gender and REDD+. Analyzing women?s roles in sub-national initiatives (published, additional paper in process)",
        "Contact Name": "Anne Larson",
        "Start Date": "NULL",
        "End Date": "NULL",
        "Country": "Indonesia",
        "CRP": "FTA"
      },
      "geometry": {
        "type": "Point",
        "coordinates": [
          113.921327,
          -0.789275
        ]
      }
    },
    {
      "type": "Feature",
      "properties": {
        "ID": 5,
        "StudyID": 4,
        "Name": "Gender and REDD+. Analyzing women?s roles in sub-national initiatives (published, additional paper in process)",
        "Contact Name": "Anne Larson",
        "Start Date": "NULL",
        "End Date": "NULL",
        "Country": "Peru",
        "CRP": "FTA"
      },
      "geometry": {
        "type": "Point",
        "coordinates": [
          -75.015152,
          -9.189967
        ]
      }
    },
    {
      "type": "Feature",
      "properties": {
        "ID": 6,
        "StudyID": 4,
        "Name": "Gender and REDD+. Analyzing women?s roles in sub-national initiatives (published, additional paper in process)",
        "Contact Name": "Anne Larson",
        "Start Date": "NULL",
        "End Date": "NULL",
        "Country": "Tanzania",
        "CRP": "FTA"
      },
      "geometry": {
        "type": "Point",
        "coordinates": [
          34.888822,
          -6.369028
        ]
      }
    },
    {
      "type": "Feature",
      "properties": {
        "ID": 7,
        "StudyID": 4,
        "Name": "Gender and REDD+. Analyzing women?s roles in sub-national initiatives (published, additional paper in process)",
        "Contact Name": "Anne Larson",
        "Start Date": "NULL",
        "End Date": "NULL",
        "Country": "Vietnam",
        "CRP": "FTA"
      },
      "geometry": {
        "type": "Point",
        "coordinates": [
          108.277199,
          14.058324
        ]
      }
    },
    {
      "type": "Feature",
      "properties": {
        "ID": 8,
        "StudyID": 4,
        "Name": "Gender and REDD+. Analyzing women?s roles in sub-national initiatives (published, additional paper in process)",
        "Contact Name": "Anne Larson",
        "Start Date": "NULL",
        "End Date": "NULL",
        "Country": "Brazil",
        "CRP": "FTA"
      },
      "geometry": {
        "type": "Point",
        "coordinates": [
          -51.92528,
          -14.235004
        ]
      }
    },
    {
      "type": "Feature",
      "properties": {
        "ID": 9,
        "StudyID": 5,
        "Name": "Diagnostic of banana processing for beverages including quantification of contributions to livelihood for cash and nutrition, food hazard analysis and gendered value chain analysis",
        "Contact Name": "Anne Rietveld",
        "Start Date": "NULL",
        "End Date": "NULL",
        "Country": "DRC",
        "CRP": "RTB"
      },
      "geometry": {
        "type": "Point",
        "coordinates": [
          21.758664,
          -4.038333
        ]
      }
    },
    {
      "type": "Feature",
      "properties": {
        "ID": 10,
        "StudyID": 5,
        "Name": "Diagnostic of banana processing for beverages including quantification of contributions to livelihood for cash and nutrition, food hazard analysis and gendered value chain analysis",
        "Contact Name": "Anne Rietveld",
        "Start Date": "NULL",
        "End Date": "NULL",
        "Country": "Rwanda",
        "CRP": "RTB"
      },
      "geometry": {
        "type": "Point",
        "coordinates": [
          29.873888,
          -1.940278
        ]
      }
    },
    {
      "type": "Feature",
      "properties": {
        "ID": 11,
        "StudyID": 5,
        "Name": "Diagnostic of banana processing for beverages including quantification of contributions to livelihood for cash and nutrition, food hazard analysis and gendered value chain analysis",
        "Contact Name": "Anne Rietveld",
        "Start Date": "NULL",
        "End Date": "NULL",
        "Country": "Uganda",
        "CRP": "RTB"
      },
      "geometry": {
        "type": "Point",
        "coordinates": [
          32.290275,
          1.373333
        ]
      }
    },
    {
      "type": "Feature",
      "properties": {
        "ID": 12,
        "StudyID": 5,
        "Name": "Diagnostic of banana processing for beverages including quantification of contributions to livelihood for cash and nutrition, food hazard analysis and gendered value chain analysis",
        "Contact Name": "Anne Rietveld",
        "Start Date": "NULL",
        "End Date": "NULL",
        "Country": "Tanzania",
        "CRP": "RTB"
      },
      "geometry": {
        "type": "Point",
        "coordinates": [
          34.888822,
          -6.369028
        ]
      }
    },
    {
      "type": "Feature",
      "properties": {
        "ID": 13,
        "StudyID": 6,
        "Name": "Global Study on Gender Norms, Agency and Innovation in Agricultural Innovation and Natural Resource Management",
        "Contact Name": "Anne Rietveld",
        "Start Date": "NULL",
        "End Date": "NULL",
        "Country": "Uganda",
        "CRP": "RTB"
      },
      "geometry": {
        "type": "Point",
        "coordinates": [
          32.290275,
          1.373333
        ]
      }
    },
    {
      "type": "Feature",
      "properties": {
        "ID": 14,
        "StudyID": 7,
        "Name": "Working paper and data set on remittances from migration and sex-disaggregated data on division of labor (in timber-based systems) and well-being;",
        "Contact Name": "Bimbika Basnett ",
        "Start Date": "NULL",
        "End Date": "NULL",
        "Country": "Indonesia",
        "CRP": "FTA"
      },
      "geometry": {
        "type": "Point",
        "coordinates": [
          113.921327,
          -0.789275
        ]
      }
    },
    {
      "type": "Feature",
      "properties": {
        "ID": 15,
        "StudyID": 8,
        "Name": "Research on gender dimensions of oil palm expansion in forested landscapes",
        "Contact Name": "Bimbika Basnett ",
        "Start Date": "NULL",
        "End Date": "NULL",
        "Country": "Indonesia",
        "CRP": "FTA"
      },
      "geometry": {
        "type": "Point",
        "coordinates": [
          113.921327,
          -0.789275
        ]
      }
    },
    {
      "type": "Feature",
      "properties": {
        "ID": 16,
        "StudyID": 9,
        "Name": "Case study Gender, migration and forest governance",
        "Contact Name": "Bimbika Basnett ",
        "Start Date": "NULL",
        "End Date": "NULL",
        "Country": "Nepal",
        "CRP": "FTA"
      },
      "geometry": {
        "type": "Point",
        "coordinates": [
          84.124008,
          28.394857
        ]
      }
    },
    {
      "type": "Feature",
      "properties": {
        "ID": 17,
        "StudyID": 12,
        "Name": "Gender, headship and the life-cycle: Landownership in four asian countries.",
        "Contact Name": "Caitlin Kieran",
        "Start Date": 2014,
        "End Date": 2015,
        "Country": "Tajikistan",
        "CRP": "PIM"
      },
      "geometry": {
        "type": "Point",
        "coordinates": [
          71.276093,
          38.861034
        ]
      }
    },
    {
      "type": "Feature",
      "properties": {
        "ID": 18,
        "StudyID": 12,
        "Name": "Gender, headship and the life-cycle: Landownership in four asian countries.",
        "Contact Name": "Caitlin Kieran",
        "Start Date": 2014,
        "End Date": 2015,
        "Country": "Timor-Leste",
        "CRP": "PIM"
      },
      "geometry": {
        "type": "Point",
        "coordinates": [
          125.727539,
          -8.874217
        ]
      }
    },
    {
      "type": "Feature",
      "properties": {
        "ID": 19,
        "StudyID": 12,
        "Name": "Gender, headship and the life-cycle: Landownership in four asian countries.",
        "Contact Name": "Caitlin Kieran",
        "Start Date": 2014,
        "End Date": 2015,
        "Country": "Vietnam",
        "CRP": "PIM"
      },
      "geometry": {
        "type": "Point",
        "coordinates": [
          108.277199,
          14.058324
        ]
      }
    },
    {
      "type": "Feature",
      "properties": {
        "ID": 20,
        "StudyID": 12,
        "Name": "Gender, headship and the life-cycle: Landownership in four asian countries.",
        "Contact Name": "Caitlin Kieran",
        "Start Date": 2014,
        "End Date": 2015,
        "Country": "Bangladesh",
        "CRP": "PIM"
      },
      "geometry": {
        "type": "Point",
        "coordinates": [
          90.356331,
          23.684994
        ]
      }
    },
    {
      "type": "Feature",
      "properties": {
        "ID": 21,
        "StudyID": 13,
        "Name": "Practitioner guide/handbook illustrating the use of Adaptive Collaborative Management approaches in transforming gender relations in forest use and management",
        "Contact Name": "Kristen Evans/Anne Larson/Esther Mwangi",
        "Start Date": "NULL",
        "End Date": "NULL",
        "Country": "Nicaragua",
        "CRP": "FTA"
      },
      "geometry": {
        "type": "Point",
        "coordinates": [
          -85.207229,
          12.865416
        ]
      }
    },
    {
      "type": "Feature",
      "properties": {
        "ID": 22,
        "StudyID": 13,
        "Name": "Practitioner guide/handbook illustrating the use of Adaptive Collaborative Management approaches in transforming gender relations in forest use and management",
        "Contact Name": "Kristen Evans/Anne Larson/Esther Mwangi",
        "Start Date": "NULL",
        "End Date": "NULL",
        "Country": "Uganda",
        "CRP": "FTA"
      },
      "geometry": {
        "type": "Point",
        "coordinates": [
          32.290275,
          1.373333
        ]
      }
    },
    {
      "type": "Feature",
      "properties": {
        "ID": 23,
        "StudyID": 14,
        "Name": "A gender analysis on the balance of power in household decision-making in southern Sulawesi",
        "Contact Name": "Carol Colfer ",
        "Start Date": "NULL",
        "End Date": "NULL",
        "Country": "Indonesia",
        "CRP": "FTA"
      },
      "geometry": {
        "type": "Point",
        "coordinates": [
          113.921327,
          -0.789275
        ]
      }
    },
    {
      "type": "Feature",
      "properties": {
        "ID": 24,
        "StudyID": 15,
        "Name": "Measuring and understanding gender gap in agricultural labour",
        "Contact Name": "Dina Najjar",
        "Start Date": 2013,
        "End Date": 2016,
        "Country": "Egypt",
        "CRP": "DS"
      },
      "geometry": {
        "type": "Point",
        "coordinates": [
          30.802498,
          26.820553
        ]
      }
    },
    {
      "type": "Feature",
      "properties": {
        "ID": 25,
        "StudyID": 15,
        "Name": "Measuring and understanding gender gap in agricultural labour",
        "Contact Name": "Dina Najjar",
        "Start Date": 2013,
        "End Date": 2016,
        "Country": "Morrocco",
        "CRP": "DS"
      },
      "geometry": {
        "type": "Point",
        "coordinates": [
          -7.09262,
          31.791702
        ]
      }
    },
    {
      "type": "Feature",
      "properties": {
        "ID": 26,
        "StudyID": 16,
        "Name": "Gender responsive technologies in agricultural systems",
        "Contact Name": "Dina Najjar",
        "Start Date": 2010,
        "End Date": 2016,
        "Country": "Egypt",
        "CRP": "DS "
      },
      "geometry": {
        "type": "Point",
        "coordinates": [
          30.802498,
          26.820553
        ]
      }
    },
    {
      "type": "Feature",
      "properties": {
        "ID": 27,
        "StudyID": 17,
        "Name": "Gender equitable rights and access to forest and tree resources and benefits / Special journal issue for a comparative assessment of women?s tenure rights, participation in forest decisions, benefits and negotiated processes",
        "Contact Name": "Esther Mwangi",
        "Start Date": "NULL",
        "End Date": "NULL",
        "Country": "Nicaragua",
        "CRP": "FTA"
      },
      "geometry": {
        "type": "Point",
        "coordinates": [
          -85.207229,
          12.865416
        ]
      }
    },
    {
      "type": "Feature",
      "properties": {
        "ID": 28,
        "StudyID": 17,
        "Name": "Gender equitable rights and access to forest and tree resources and benefits / Special journal issue for a comparative assessment of women?s tenure rights, participation in forest decisions, benefits and negotiated processes",
        "Contact Name": "Esther Mwangi",
        "Start Date": "NULL",
        "End Date": "NULL",
        "Country": "Uganda",
        "CRP": "FTA"
      },
      "geometry": {
        "type": "Point",
        "coordinates": [
          32.290275,
          1.373333
        ]
      }
    },
    {
      "type": "Feature",
      "properties": {
        "ID": 29,
        "StudyID": 19,
        "Name": "Global Study on Gender Norms, Agency and Innovation in Agricultural Innovation and Natural Resource Management",
        "Contact Name": "Esther Njuguna",
        "Start Date": 2015,
        "End Date": "NULL",
        "Country": "Ethiopia",
        "CRP": "GL"
      },
      "geometry": {
        "type": "Point",
        "coordinates": [
          40.489673,
          9.145
        ]
      }
    },
    {
      "type": "Feature",
      "properties": {
        "ID": 30,
        "StudyID": 19,
        "Name": "Global Study on Gender Norms, Agency and Innovation in Agricultural Innovation and Natural Resource Management",
        "Contact Name": "Esther Njuguna",
        "Start Date": 2015,
        "End Date": "NULL",
        "Country": "Uganda",
        "CRP": "GL"
      },
      "geometry": {
        "type": "Point",
        "coordinates": [
          32.290275,
          1.373333
        ]
      }
    },
    {
      "type": "Feature",
      "properties": {
        "ID": 31,
        "StudyID": 19,
        "Name": "Global Study on Gender Norms, Agency and Innovation in Agricultural Innovation and Natural Resource Management",
        "Contact Name": "Esther Njuguna",
        "Start Date": 2015,
        "End Date": "NULL",
        "Country": "Tanzania",
        "CRP": "GL"
      },
      "geometry": {
        "type": "Point",
        "coordinates": [
          34.888822,
          -6.369028
        ]
      }
    },
    {
      "type": "Feature",
      "properties": {
        "ID": 32,
        "StudyID": 20,
        "Name": "Evidence of gender gaps in grain legumes production systems",
        "Contact Name": "Esther Njuguna",
        "Start Date": 2015,
        "End Date": 2016,
        "Country": "Ethiopia",
        "CRP": "GL"
      },
      "geometry": {
        "type": "Point",
        "coordinates": [
          40.489673,
          9.145
        ]
      }
    },
    {
      "type": "Feature",
      "properties": {
        "ID": 33,
        "StudyID": 20,
        "Name": "Evidence of gender gaps in grain legumes production systems",
        "Contact Name": "Esther Njuguna",
        "Start Date": 2015,
        "End Date": 2016,
        "Country": "Uganda",
        "CRP": "GL"
      },
      "geometry": {
        "type": "Point",
        "coordinates": [
          32.290275,
          1.373333
        ]
      }
    },
    {
      "type": "Feature",
      "properties": {
        "ID": 34,
        "StudyID": 20,
        "Name": "Evidence of gender gaps in grain legumes production systems",
        "Contact Name": "Esther Njuguna",
        "Start Date": 2015,
        "End Date": 2016,
        "Country": "Tanzania",
        "CRP": "GL"
      },
      "geometry": {
        "type": "Point",
        "coordinates": [
          34.888822,
          -6.369028
        ]
      }
    },
    {
      "type": "Feature",
      "properties": {
        "ID": 35,
        "StudyID": 21,
        "Name": "Gender dynamics in consultation and decision making mechanisms in forest concessions in the Republic of Congo",
        "Contact Name": "Eulalie Guillaume ",
        "Start Date": "NULL",
        "End Date": "NULL",
        "Country": "DRC",
        "CRP": "FTA"
      },
      "geometry": {
        "type": "Point",
        "coordinates": [
          21.758664,
          -4.038333
        ]
      }
    },
    {
      "type": "Feature",
      "properties": {
        "ID": 36,
        "StudyID": 23,
        "Name": "Rehabilitation of irrigation in Zimbabwe",
        "Contact Name": "Everisto Mapedza",
        "Start Date": 2010,
        "End Date": 2013,
        "Country": "Zimbabwe",
        "CRP": "DS , WLE"
      },
      "geometry": {
        "type": "Point",
        "coordinates": [
          29.154857,
          -19.015438
        ]
      }
    },
    {
      "type": "Feature",
      "properties": {
        "ID": 37,
        "StudyID": 24,
        "Name": "Enhancing utilization of RTB crops and reducing post harvers losses",
        "Contact Name": "Gordon Prain",
        "Start Date": 2014,
        "End Date": 2017,
        "Country": "Uganda",
        "CRP": "RTB"
      },
      "geometry": {
        "type": "Point",
        "coordinates": [
          32.290275,
          1.373333
        ]
      }
    },
    {
      "type": "Feature",
      "properties": {
        "ID": 38,
        "StudyID": 25,
        "Name": "USAID horticulture project, CIP-AVRDC, Bangladesh",
        "Contact Name": "Gordon Prain",
        "Start Date": 2012,
        "End Date": 2015,
        "Country": "Bangladesh",
        "CRP": "RTB, A4NH"
      },
      "geometry": {
        "type": "Point",
        "coordinates": [
          90.356331,
          23.684994
        ]
      }
    },
    {
      "type": "Feature",
      "properties": {
        "ID": 39,
        "StudyID": 26,
        "Name": "Food resilience through root and tuber crops in upland-coastal communities of Asia-Pacific (FoodSTART+)",
        "Contact Name": "Gordon Prain",
        "Start Date": 2015,
        "End Date": 2018,
        "Country": "China",
        "CRP": "RTB"
      },
      "geometry": {
        "type": "Point",
        "coordinates": [
          104.195397,
          35.86166
        ]
      }
    },
    {
      "type": "Feature",
      "properties": {
        "ID": 40,
        "StudyID": 26,
        "Name": "Food resilience through root and tuber crops in upland-coastal communities of Asia-Pacific (FoodSTART+)",
        "Contact Name": "Gordon Prain",
        "Start Date": 2015,
        "End Date": 2018,
        "Country": "India",
        "CRP": "RTB"
      },
      "geometry": {
        "type": "Point",
        "coordinates": [
          78.96288,
          20.593684
        ]
      }
    },
    {
      "type": "Feature",
      "properties": {
        "ID": 41,
        "StudyID": 26,
        "Name": "Food resilience through root and tuber crops in upland-coastal communities of Asia-Pacific (FoodSTART+)",
        "Contact Name": "Gordon Prain",
        "Start Date": 2015,
        "End Date": 2018,
        "Country": "Indonesia",
        "CRP": "RTB"
      },
      "geometry": {
        "type": "Point",
        "coordinates": [
          113.921327,
          -0.789275
        ]
      }
    },
    {
      "type": "Feature",
      "properties": {
        "ID": 42,
        "StudyID": 26,
        "Name": "Food resilience through root and tuber crops in upland-coastal communities of Asia-Pacific (FoodSTART+)",
        "Contact Name": "Gordon Prain",
        "Start Date": 2015,
        "End Date": 2018,
        "Country": "Vietnam",
        "CRP": "RTB"
      },
      "geometry": {
        "type": "Point",
        "coordinates": [
          108.277199,
          14.058324
        ]
      }
    },
    {
      "type": "Feature",
      "properties": {
        "ID": 43,
        "StudyID": 26,
        "Name": "Food resilience through root and tuber crops in upland-coastal communities of Asia-Pacific (FoodSTART+)",
        "Contact Name": "Gordon Prain",
        "Start Date": 2015,
        "End Date": 2018,
        "Country": "Philippines",
        "CRP": "RTB"
      },
      "geometry": {
        "type": "Point",
        "coordinates": [
          121.774017,
          12.879721
        ]
      }
    },
    {
      "type": "Feature",
      "properties": {
        "ID": 44,
        "StudyID": 27,
        "Name": "Global Study on Gender Norms, Agency and Innovation in Agricultural Innovation and Natural Resource Management",
        "Contact Name": "Gordon Prain",
        "Start Date": "NULL",
        "End Date": "NULL",
        "Country": "Bangladesh",
        "CRP": "RTB"
      },
      "geometry": {
        "type": "Point",
        "coordinates": [
          90.356331,
          23.684994
        ]
      }
    },
    {
      "type": "Feature",
      "properties": {
        "ID": 45,
        "StudyID": 28,
        "Name": "Case study on the importance, determinants and gender dimensions of forest income in eastern highlands of Ethiopia (published)",
        "Contact Name": "Habtemariam Kassa",
        "Start Date": "NULL",
        "End Date": "NULL",
        "Country": "Ethiopia",
        "CRP": "FTA"
      },
      "geometry": {
        "type": "Point",
        "coordinates": [
          40.489673,
          9.145
        ]
      }
    },
    {
      "type": "Feature",
      "properties": {
        "ID": 46,
        "StudyID": 30,
        "Name": "Cross-country study of woments time use, nutrition and food security",
        "Contact Name": "Hazel Malapit",
        "Start Date": 2014,
        "End Date": 2016,
        "Country": "Cambodia",
        "CRP": "A4NH"
      },
      "geometry": {
        "type": "Point",
        "coordinates": [
          104.990963,
          12.565679
        ]
      }
    },
    {
      "type": "Feature",
      "properties": {
        "ID": 47,
        "StudyID": 30,
        "Name": "Cross-country study of woments time use, nutrition and food security",
        "Contact Name": "Hazel Malapit",
        "Start Date": 2014,
        "End Date": 2016,
        "Country": "Ethiopia",
        "CRP": "A4NH"
      },
      "geometry": {
        "type": "Point",
        "coordinates": [
          40.489673,
          9.145
        ]
      }
    },
    {
      "type": "Feature",
      "properties": {
        "ID": 48,
        "StudyID": 30,
        "Name": "Cross-country study of woments time use, nutrition and food security",
        "Contact Name": "Hazel Malapit",
        "Start Date": 2014,
        "End Date": 2016,
        "Country": "Ghana",
        "CRP": "A4NH"
      },
      "geometry": {
        "type": "Point",
        "coordinates": [
          -1.023194,
          7.946527
        ]
      }
    },
    {
      "type": "Feature",
      "properties": {
        "ID": 49,
        "StudyID": 30,
        "Name": "Cross-country study of woments time use, nutrition and food security",
        "Contact Name": "Hazel Malapit",
        "Start Date": 2014,
        "End Date": 2016,
        "Country": "Mozambique",
        "CRP": "A4NH"
      },
      "geometry": {
        "type": "Point",
        "coordinates": [
          35.529562,
          -18.665695
        ]
      }
    },
    {
      "type": "Feature",
      "properties": {
        "ID": 50,
        "StudyID": 30,
        "Name": "Cross-country study of woments time use, nutrition and food security",
        "Contact Name": "Hazel Malapit",
        "Start Date": 2014,
        "End Date": 2016,
        "Country": "Nepal",
        "CRP": "A4NH"
      },
      "geometry": {
        "type": "Point",
        "coordinates": [
          84.124008,
          28.394857
        ]
      }
    },
    {
      "type": "Feature",
      "properties": {
        "ID": 51,
        "StudyID": 30,
        "Name": "Cross-country study of woments time use, nutrition and food security",
        "Contact Name": "Hazel Malapit",
        "Start Date": 2014,
        "End Date": 2016,
        "Country": "Bangledesh",
        "CRP": "A4NH"
      },
      "geometry": {
        "type": "Point",
        "coordinates": [
          90.356331,
          23.684994
        ]
      }
    },
    {
      "type": "Feature",
      "properties": {
        "ID": 52,
        "StudyID": 31,
        "Name": "Robustness tests of decision making indicators using survey experiments",
        "Contact Name": "Hazel Malapit",
        "Start Date": 2014,
        "End Date": 2015,
        "Country": "Yemen",
        "CRP": "A4NH"
      },
      "geometry": {
        "type": "Point",
        "coordinates": [
          48.516388,
          15.552727
        ]
      }
    },
    {
      "type": "Feature",
      "properties": {
        "ID": 53,
        "StudyID": 31,
        "Name": "Robustness tests of decision making indicators using survey experiments",
        "Contact Name": "Hazel Malapit",
        "Start Date": 2014,
        "End Date": 2015,
        "Country": "Ecuador",
        "CRP": "A4NH"
      },
      "geometry": {
        "type": "Point",
        "coordinates": [
          -78.183406,
          -1.831239
        ]
      }
    },
    {
      "type": "Feature",
      "properties": {
        "ID": 54,
        "StudyID": 32,
        "Name": "Bangladesh child outcomes paper",
        "Contact Name": "Hazel Malapit",
        "Start Date": 2013,
        "End Date": 2015,
        "Country": "Bangladesh",
        "CRP": "PIM"
      },
      "geometry": {
        "type": "Point",
        "coordinates": [
          90.356331,
          23.684994
        ]
      }
    },
    {
      "type": "Feature",
      "properties": {
        "ID": 55,
        "StudyID": 33,
        "Name": "Production diversity paper, WE and nutrition (JDS Special issue)",
        "Contact Name": "Hazel Malapit",
        "Start Date": 2013,
        "End Date": 2014,
        "Country": "Nepal",
        "CRP": "A4NH,PIM"
      },
      "geometry": {
        "type": "Point",
        "coordinates": [
          84.124008,
          28.394857
        ]
      }
    },
    {
      "type": "Feature",
      "properties": {
        "ID": 56,
        "StudyID": 34,
        "Name": "WEAI and nutrition paper in Ghana",
        "Contact Name": "Hazel Malapit",
        "Start Date": 2013,
        "End Date": 2015,
        "Country": "Ghana",
        "CRP": "A4NH,PIM"
      },
      "geometry": {
        "type": "Point",
        "coordinates": [
          -1.023194,
          7.946527
        ]
      }
    },
    {
      "type": "Feature",
      "properties": {
        "ID": 57,
        "StudyID": 35,
        "Name": "Gendered preferences of cassava traits in Nigeria",
        "Contact Name": "Holger Kirscht",
        "Start Date": 2013,
        "End Date": 2015,
        "Country": "Nigeria",
        "CRP": "RTB"
      },
      "geometry": {
        "type": "Point",
        "coordinates": [
          8.675277,
          9.081999
        ]
      }
    },
    {
      "type": "Feature",
      "properties": {
        "ID": 58,
        "StudyID": 36,
        "Name": "Womens involvement in key value chain of innovation platforms in cameroon",
        "Contact Name": "Holger Kirscht",
        "Start Date": 2014,
        "End Date": 2015,
        "Country": "Cameroon",
        "CRP": "HT"
      },
      "geometry": {
        "type": "Point",
        "coordinates": [
          12.354722,
          7.369722
        ]
      }
    },
    {
      "type": "Feature",
      "properties": {
        "ID": 59,
        "StudyID": 37,
        "Name": "Key traits identified that men and women farmers consider for the adoption of a new variety especially used by vulnerable communities such as women and children (2013 IITA)",
        "Contact Name": "Holger Kirscht",
        "Start Date": "NULL",
        "End Date": "NULL",
        "Country": "Cameroon",
        "CRP": "RTB"
      },
      "geometry": {
        "type": "Point",
        "coordinates": [
          12.354722,
          7.369722
        ]
      }
    },
    {
      "type": "Feature",
      "properties": {
        "ID": 60,
        "StudyID": 37,
        "Name": "Key traits identified that men and women farmers consider for the adoption of a new variety especially used by vulnerable communities such as women and children (2013 IITA)",
        "Contact Name": "Holger Kirscht",
        "Start Date": "NULL",
        "End Date": "NULL",
        "Country": "Nigeria",
        "CRP": "RTB"
      },
      "geometry": {
        "type": "Point",
        "coordinates": [
          8.675277,
          9.081999
        ]
      }
    },
    {
      "type": "Feature",
      "properties": {
        "ID": 61,
        "StudyID": 38,
        "Name": "Survey of 2 production units at small- to medium-scale cassava processing centers (2013 ? 2014)",
        "Contact Name": "Holger Kirscht",
        "Start Date": "NULL",
        "End Date": "NULL",
        "Country": "Nigeria",
        "CRP": "RTB"
      },
      "geometry": {
        "type": "Point",
        "coordinates": [
          8.675277,
          9.081999
        ]
      }
    },
    {
      "type": "Feature",
      "properties": {
        "ID": 62,
        "StudyID": 39,
        "Name": "Research to identify key social and gender factors influencing management of priority pests and diseases",
        "Contact Name": "Holger Kirscht, Anne Rietveld",
        "Start Date": "NULL",
        "End Date": "NULL",
        "Country": "Burundi",
        "CRP": "RTB"
      },
      "geometry": {
        "type": "Point",
        "coordinates": [
          29.918886,
          -3.373056
        ]
      }
    },
    {
      "type": "Feature",
      "properties": {
        "ID": 63,
        "StudyID": 39,
        "Name": "Research to identify key social and gender factors influencing management of priority pests and diseases",
        "Contact Name": "Holger Kirscht, Anne Rietveld",
        "Start Date": "NULL",
        "End Date": "NULL",
        "Country": "Cameroon",
        "CRP": "RTB"
      },
      "geometry": {
        "type": "Point",
        "coordinates": [
          12.354722,
          7.369722
        ]
      }
    },
    {
      "type": "Feature",
      "properties": {
        "ID": 64,
        "StudyID": 39,
        "Name": "Research to identify key social and gender factors influencing management of priority pests and diseases",
        "Contact Name": "Holger Kirscht, Anne Rietveld",
        "Start Date": "NULL",
        "End Date": "NULL",
        "Country": "DRC",
        "CRP": "RTB"
      },
      "geometry": {
        "type": "Point",
        "coordinates": [
          21.758664,
          -4.038333
        ]
      }
    },
    {
      "type": "Feature",
      "properties": {
        "ID": 65,
        "StudyID": 39,
        "Name": "Research to identify key social and gender factors influencing management of priority pests and diseases",
        "Contact Name": "Holger Kirscht, Anne Rietveld",
        "Start Date": "NULL",
        "End Date": "NULL",
        "Country": "Malawi",
        "CRP": "RTB"
      },
      "geometry": {
        "type": "Point",
        "coordinates": [
          34.301525,
          -13.254308
        ]
      }
    },
    {
      "type": "Feature",
      "properties": {
        "ID": 66,
        "StudyID": 40,
        "Name": "Demography, Migration and Gendered Land Use Perspectives in the Peat Lands of Jambi",
        "Contact Name": "ICRAF",
        "Start Date": "NULL",
        "End Date": "NULL",
        "Country": "Indonesia",
        "CRP": "FTA"
      },
      "geometry": {
        "type": "Point",
        "coordinates": [
          113.921327,
          -0.789275
        ]
      }
    },
    {
      "type": "Feature",
      "properties": {
        "ID": 67,
        "StudyID": 45,
        "Name": "Gender Supporting Economic Family Through Rubber Agroforestry - local wisdom of Lubuk Beringin",
        "Contact Name": "ICRAF",
        "Start Date": "NULL",
        "End Date": "NULL",
        "Country": "Jambi",
        "CRP": "FTA"
      },
      "geometry": {
        "type": "Point",
        "coordinates": [
          103.61312,
          -1.610123
        ]
      }
    },
    {
      "type": "Feature",
      "properties": {
        "ID": 68,
        "StudyID": 45,
        "Name": "Gender Supporting Economic Family Through Rubber Agroforestry - local wisdom of Lubuk Beringin",
        "Contact Name": "ICRAF",
        "Start Date": "NULL",
        "End Date": "NULL",
        "Country": "Indonesia",
        "CRP": "FTA"
      },
      "geometry": {
        "type": "Point",
        "coordinates": [
          113.921327,
          -0.789275
        ]
      }
    },
    {
      "type": "Feature",
      "properties": {
        "ID": 69,
        "StudyID": 46,
        "Name": "Private and social motivation of local (and gender differential) co-investment in environmental services and participation in conservation agreements: perception survey and simulation games in a rubber agroforest village in Jambi (Sumatra, Indonesia)",
        "Contact Name": "ICRAF",
        "Start Date": "NULL",
        "End Date": "NULL",
        "Country": "Jambi",
        "CRP": "FTA"
      },
      "geometry": {
        "type": "Point",
        "coordinates": [
          103.61312,
          -1.610123
        ]
      }
    },
    {
      "type": "Feature",
      "properties": {
        "ID": 70,
        "StudyID": 46,
        "Name": "Private and social motivation of local (and gender differential) co-investment in environmental services and participation in conservation agreements: perception survey and simulation games in a rubber agroforest village in Jambi (Sumatra, Indonesia)",
        "Contact Name": "ICRAF",
        "Start Date": "NULL",
        "End Date": "NULL",
        "Country": "Indonesia",
        "CRP": "FTA"
      },
      "geometry": {
        "type": "Point",
        "coordinates": [
          113.921327,
          -0.789275
        ]
      }
    },
    {
      "type": "Feature",
      "properties": {
        "ID": 71,
        "StudyID": 47,
        "Name": "Gendered preferences and decision making of multifunctional landscapes- theories and evidence",
        "Contact Name": "ICRAF",
        "Start Date": "NULL",
        "End Date": "NULL",
        "Country": "India",
        "CRP": "FTA"
      },
      "geometry": {
        "type": "Point",
        "coordinates": [
          78.96288,
          20.593684
        ]
      }
    },
    {
      "type": "Feature",
      "properties": {
        "ID": 72,
        "StudyID": 47,
        "Name": "Gendered preferences and decision making of multifunctional landscapes- theories and evidence",
        "Contact Name": "ICRAF",
        "Start Date": "NULL",
        "End Date": "NULL",
        "Country": "Kenya",
        "CRP": "FTA"
      },
      "geometry": {
        "type": "Point",
        "coordinates": [
          37.906193,
          -0.023559
        ]
      }
    },
    {
      "type": "Feature",
      "properties": {
        "ID": 73,
        "StudyID": 47,
        "Name": "Gendered preferences and decision making of multifunctional landscapes- theories and evidence",
        "Contact Name": "ICRAF",
        "Start Date": "NULL",
        "End Date": "NULL",
        "Country": "Malawi",
        "CRP": "FTA"
      },
      "geometry": {
        "type": "Point",
        "coordinates": [
          34.301525,
          -13.254308
        ]
      }
    },
    {
      "type": "Feature",
      "properties": {
        "ID": 74,
        "StudyID": 47,
        "Name": "Gendered preferences and decision making of multifunctional landscapes- theories and evidence",
        "Contact Name": "ICRAF",
        "Start Date": "NULL",
        "End Date": "NULL",
        "Country": "Philippines",
        "CRP": "FTA"
      },
      "geometry": {
        "type": "Point",
        "coordinates": [
          121.774017,
          12.879721
        ]
      }
    },
    {
      "type": "Feature",
      "properties": {
        "ID": 75,
        "StudyID": 47,
        "Name": "Gendered preferences and decision making of multifunctional landscapes- theories and evidence",
        "Contact Name": "ICRAF",
        "Start Date": "NULL",
        "End Date": "NULL",
        "Country": "Vietnam",
        "CRP": "FTA"
      },
      "geometry": {
        "type": "Point",
        "coordinates": [
          108.277199,
          14.058324
        ]
      }
    },
    {
      "type": "Feature",
      "properties": {
        "ID": 76,
        "StudyID": 47,
        "Name": "Gendered preferences and decision making of multifunctional landscapes- theories and evidence",
        "Contact Name": "ICRAF",
        "Start Date": "NULL",
        "End Date": "NULL",
        "Country": "Indonesia",
        "CRP": "FTA"
      },
      "geometry": {
        "type": "Point",
        "coordinates": [
          113.921327,
          -0.789275
        ]
      }
    },
    {
      "type": "Feature",
      "properties": {
        "ID": 77,
        "StudyID": 48,
        "Name": "Synthesis of where and why are fruit trees kept on farms and perception of the role of fruit trees to livelihoods with particular emphasis on women",
        "Contact Name": "ICRAF",
        "Start Date": "NULL",
        "End Date": "NULL",
        "Country": "Guatemala",
        "CRP": "FTA"
      },
      "geometry": {
        "type": "Point",
        "coordinates": [
          -90.230759,
          15.783471
        ]
      }
    },
    {
      "type": "Feature",
      "properties": {
        "ID": 78,
        "StudyID": 48,
        "Name": "Synthesis of where and why are fruit trees kept on farms and perception of the role of fruit trees to livelihoods with particular emphasis on women",
        "Contact Name": "ICRAF",
        "Start Date": "NULL",
        "End Date": "NULL",
        "Country": "Honduras",
        "CRP": "FTA"
      },
      "geometry": {
        "type": "Point",
        "coordinates": [
          -86.241905,
          15.199999
        ]
      }
    },
    {
      "type": "Feature",
      "properties": {
        "ID": 79,
        "StudyID": 48,
        "Name": "Synthesis of where and why are fruit trees kept on farms and perception of the role of fruit trees to livelihoods with particular emphasis on women",
        "Contact Name": "ICRAF",
        "Start Date": "NULL",
        "End Date": "NULL",
        "Country": "Nicaragua",
        "CRP": "FTA"
      },
      "geometry": {
        "type": "Point",
        "coordinates": [
          -85.207229,
          12.865416
        ]
      }
    },
    {
      "type": "Feature",
      "properties": {
        "ID": 80,
        "StudyID": 49,
        "Name": "Evaluation of gender aspects in the adoption of agroforestry in humid forest and savannah zone of Cameroon",
        "Contact Name": "ICRAF",
        "Start Date": "NULL",
        "End Date": "NULL",
        "Country": "Cameroon",
        "CRP": "FTA"
      },
      "geometry": {
        "type": "Point",
        "coordinates": [
          12.354722,
          7.369722
        ]
      }
    },
    {
      "type": "Feature",
      "properties": {
        "ID": 81,
        "StudyID": 50,
        "Name": "Synthesis of gender specificities related to collective action in AFTP marketing",
        "Contact Name": "ICRAF",
        "Start Date": "NULL",
        "End Date": "NULL",
        "Country": "DRC",
        "CRP": "FTA"
      },
      "geometry": {
        "type": "Point",
        "coordinates": [
          21.758664,
          -4.038333
        ]
      }
    },
    {
      "type": "Feature",
      "properties": {
        "ID": 82,
        "StudyID": 50,
        "Name": "Synthesis of gender specificities related to collective action in AFTP marketing",
        "Contact Name": "ICRAF",
        "Start Date": "NULL",
        "End Date": "NULL",
        "Country": "Cameroon",
        "CRP": "FTA"
      },
      "geometry": {
        "type": "Point",
        "coordinates": [
          12.354722,
          7.369722
        ]
      }
    },
    {
      "type": "Feature",
      "properties": {
        "ID": 83,
        "StudyID": 51,
        "Name": "Assessment of gender-differentiated adoption of improved marketing strategies of AFTPs",
        "Contact Name": "ICRAF",
        "Start Date": "NULL",
        "End Date": "NULL",
        "Country": "DRC",
        "CRP": "FTA"
      },
      "geometry": {
        "type": "Point",
        "coordinates": [
          21.758664,
          -4.038333
        ]
      }
    },
    {
      "type": "Feature",
      "properties": {
        "ID": 84,
        "StudyID": 51,
        "Name": "Assessment of gender-differentiated adoption of improved marketing strategies of AFTPs",
        "Contact Name": "ICRAF",
        "Start Date": "NULL",
        "End Date": "NULL",
        "Country": "Cameroon",
        "CRP": "FTA"
      },
      "geometry": {
        "type": "Point",
        "coordinates": [
          12.354722,
          7.369722
        ]
      }
    },
    {
      "type": "Feature",
      "properties": {
        "ID": 85,
        "StudyID": 52,
        "Name": "Benefits of Rural Resource Centers for women and marginalized groups in Cameroon evaluated",
        "Contact Name": "ICRAF",
        "Start Date": "NULL",
        "End Date": "NULL",
        "Country": "Cameroon",
        "CRP": "FTA"
      },
      "geometry": {
        "type": "Point",
        "coordinates": [
          12.354722,
          7.369722
        ]
      }
    },
    {
      "type": "Feature",
      "properties": {
        "ID": 86,
        "StudyID": 53,
        "Name": "Ecological corridor concepts and gender-specific dispersal",
        "Contact Name": "ICRAF",
        "Start Date": "NULL",
        "End Date": "NULL",
        "Country": "Indonesia",
        "CRP": "FTA"
      },
      "geometry": {
        "type": "Point",
        "coordinates": [
          113.921327,
          -0.789275
        ]
      }
    },
    {
      "type": "Feature",
      "properties": {
        "ID": 87,
        "StudyID": 54,
        "Name": "Playing out of transformative Adaptations in East Africa",
        "Contact Name": "Jennifer Twyman",
        "Start Date": 2012,
        "End Date": 2013,
        "Country": "Ethiopia",
        "CRP": "CCAFS"
      },
      "geometry": {
        "type": "Point",
        "coordinates": [
          38.987674,
          4.723463
        ]
      }
    },
    {
      "type": "Feature",
      "properties": {
        "ID": 88,
        "StudyID": 54,
        "Name": "Playing out of transformative Adaptations in East Africa",
        "Contact Name": "Jennifer Twyman",
        "Start Date": 2012,
        "End Date": 2013,
        "Country": "Tanzania",
        "CRP": "CCAFS"
      },
      "geometry": {
        "type": "Point",
        "coordinates": [
          38.5,
          -4.75
        ]
      }
    },
    {
      "type": "Feature",
      "properties": {
        "ID": 89,
        "StudyID": 54,
        "Name": "Playing out of transformative Adaptations in East Africa",
        "Contact Name": "Jennifer Twyman",
        "Start Date": 2012,
        "End Date": 2013,
        "Country": "Uganda",
        "CRP": "CCAFS"
      },
      "geometry": {
        "type": "Point",
        "coordinates": [
          31.348445,
          1.427355
        ]
      }
    },
    {
      "type": "Feature",
      "properties": {
        "ID": 90,
        "StudyID": 54,
        "Name": "Playing out of transformative Adaptations in East Africa",
        "Contact Name": "Jennifer Twyman",
        "Start Date": 2012,
        "End Date": 2013,
        "Country": "Kenya",
        "CRP": "CCAFS"
      },
      "geometry": {
        "type": "Point",
        "coordinates": [
          36.780395,
          -1.28519
        ]
      }
    },
    {
      "type": "Feature",
      "properties": {
        "ID": 91,
        "StudyID": 55,
        "Name": "Adaptation to Climate Change in the Rio Piedras Watershed in Colombia ",
        "Contact Name": "Jennifer Twyman",
        "Start Date": 2012,
        "End Date": "NULL",
        "Country": "Colombia",
        "CRP": "CCAFS"
      },
      "geometry": {
        "type": "Point",
        "coordinates": [
          -76.614739,
          2.444814
        ]
      }
    },
    {
      "type": "Feature",
      "properties": {
        "ID": 92,
        "StudyID": 56,
        "Name": "CCAFS gender survey",
        "Contact Name": "Jennifer Twyman, Claudia Ringler",
        "Start Date": 2012,
        "End Date": "NULL",
        "Country": "Bangladesh",
        "CRP": "CCAFS"
      },
      "geometry": {
        "type": "Point",
        "coordinates": [
          90.356331,
          23.684994
        ]
      }
    },
    {
      "type": "Feature",
      "properties": {
        "ID": 93,
        "StudyID": 56,
        "Name": "CCAFS gender survey",
        "Contact Name": "Jennifer Twyman, Claudia Ringler",
        "Start Date": 2012,
        "End Date": "NULL",
        "Country": "Sengegal",
        "CRP": "CCAFS"
      },
      "geometry": {
        "type": "Point",
        "coordinates": [
          -14.452362,
          14.497401
        ]
      }
    },
    {
      "type": "Feature",
      "properties": {
        "ID": 94,
        "StudyID": 56,
        "Name": "CCAFS gender survey",
        "Contact Name": "Jennifer Twyman, Claudia Ringler",
        "Start Date": 2012,
        "End Date": "NULL",
        "Country": "Uganda",
        "CRP": "CCAFS"
      },
      "geometry": {
        "type": "Point",
        "coordinates": [
          31.40991,
          -0.70294
        ]
      }
    },
    {
      "type": "Feature",
      "properties": {
        "ID": 95,
        "StudyID": 56,
        "Name": "CCAFS gender survey",
        "Contact Name": "Jennifer Twyman, Claudia Ringler",
        "Start Date": 2012,
        "End Date": "NULL",
        "Country": "Kenya",
        "CRP": "CCAFS"
      },
      "geometry": {
        "type": "Point",
        "coordinates": [
          36.780395,
          -1.28519
        ]
      }
    },
    {
      "type": "Feature",
      "properties": {
        "ID": 96,
        "StudyID": 58,
        "Name": "Global Study on Gender Norms, Agency and Innovation in Agricultural Innovation and Natural Resource Management",
        "Contact Name": "Kayte Meola",
        "Start Date": 2013,
        "End Date": 2015,
        "Country": "Colombia",
        "CRP": "RTB"
      },
      "geometry": {
        "type": "Point",
        "coordinates": [
          -74.297333,
          4.570868
        ]
      }
    },
    {
      "type": "Feature",
      "properties": {
        "ID": 97,
        "StudyID": 59,
        "Name": "Gender implications of the transition from tradition to industrial cassava markets",
        "Contact Name": "Kayte Meola",
        "Start Date": 2013,
        "End Date": 2015,
        "Country": "Colombia",
        "CRP": "RTB"
      },
      "geometry": {
        "type": "Point",
        "coordinates": [
          -74.297333,
          4.570868
        ]
      }
    },
    {
      "type": "Feature",
      "properties": {
        "ID": 98,
        "StudyID": 60,
        "Name": "Sex disaggregated surveys on farmers agro-ecological knowledge and Pest and Disease Management",
        "Contact Name": "Kayte Meola",
        "Start Date": "NULL",
        "End Date": "NULL",
        "Country": "Vietnam",
        "CRP": "RTB"
      },
      "geometry": {
        "type": "Point",
        "coordinates": [
          108.277199,
          14.058324
        ]
      }
    },
    {
      "type": "Feature",
      "properties": {
        "ID": 99,
        "StudyID": 60,
        "Name": "Sex disaggregated surveys on farmers agro-ecological knowledge and Pest and Disease Management",
        "Contact Name": "Kayte Meola",
        "Start Date": "NULL",
        "End Date": "NULL",
        "Country": "Thailand",
        "CRP": "RTB"
      },
      "geometry": {
        "type": "Point",
        "coordinates": [
          100.992541,
          15.870032
        ]
      }
    },
    {
      "type": "Feature",
      "properties": {
        "ID": 100,
        "StudyID": 61,
        "Name": "A study on scaling up of value chain analysis from a gender perspective",
        "Contact Name": "Kayte Meola",
        "Start Date": "NULL",
        "End Date": "NULL",
        "Country": "Colombia",
        "CRP": "RTB"
      },
      "geometry": {
        "type": "Point",
        "coordinates": [
          -74.297333,
          4.570868
        ]
      }
    },
    {
      "type": "Feature",
      "properties": {
        "ID": 101,
        "StudyID": 62,
        "Name": "Household survey on livelihood opportunities for livestock feeding using cassava residue",
        "Contact Name": "Kayte Meola",
        "Start Date": "NULL",
        "End Date": "NULL",
        "Country": "Vietnam",
        "CRP": "RTB"
      },
      "geometry": {
        "type": "Point",
        "coordinates": [
          108.277199,
          14.058324
        ]
      }
    },
    {
      "type": "Feature",
      "properties": {
        "ID": 102,
        "StudyID": 63,
        "Name": "Global Study on Gender Norms, Agency and Innovation in Agricultural Innovation and Natural Resource Management",
        "Contact Name": "Kayte Meola",
        "Start Date": "NULL",
        "End Date": "NULL",
        "Country": "Colombia",
        "CRP": "RTB"
      },
      "geometry": {
        "type": "Point",
        "coordinates": [
          -74.297333,
          4.570868
        ]
      }
    },
    {
      "type": "Feature",
      "properties": {
        "ID": 103,
        "StudyID": 64,
        "Name": "Loss and damage in climate change",
        "Contact Name": "Linta Mathew",
        "Start Date": 2014,
        "End Date": 2014,
        "Country": "Bangladesh",
        "CRP": "GRISP"
      },
      "geometry": {
        "type": "Point",
        "coordinates": [
          90.356331,
          23.684994
        ]
      }
    },
    {
      "type": "Feature",
      "properties": {
        "ID": 104,
        "StudyID": 64,
        "Name": "Loss and damage in climate change",
        "Contact Name": "Linta Mathew",
        "Start Date": 2014,
        "End Date": 2014,
        "Country": "Kenya",
        "CRP": "GRISP"
      },
      "geometry": {
        "type": "Point",
        "coordinates": [
          37.906193,
          -0.023559
        ]
      }
    },
    {
      "type": "Feature",
      "properties": {
        "ID": 105,
        "StudyID": 65,
        "Name": "Addressing key issues in climate change",
        "Contact Name": "Linta Mathew",
        "Start Date": 2014,
        "End Date": 2015,
        "Country": "Bangladesh",
        "CRP": "GRISP"
      },
      "geometry": {
        "type": "Point",
        "coordinates": [
          90.356331,
          23.684994
        ]
      }
    },
    {
      "type": "Feature",
      "properties": {
        "ID": 106,
        "StudyID": 65,
        "Name": "Addressing key issues in climate change",
        "Contact Name": "Linta Mathew",
        "Start Date": 2014,
        "End Date": 2015,
        "Country": "Kenya",
        "CRP": "GRISP"
      },
      "geometry": {
        "type": "Point",
        "coordinates": [
          37.906193,
          -0.023559
        ]
      }
    },
    {
      "type": "Feature",
      "properties": {
        "ID": 107,
        "StudyID": 67,
        "Name": "MUS water users associations and gender in water reform in rural Burkina Faso",
        "Contact Name": "Liza Debevec",
        "Start Date": 2013,
        "End Date": 2014,
        "Country": "Burkina Faso",
        "CRP": "WLE"
      },
      "geometry": {
        "type": "Point",
        "coordinates": [
          -1.561593,
          12.238333
        ]
      }
    },
    {
      "type": "Feature",
      "properties": {
        "ID": 108,
        "StudyID": 68,
        "Name": "Differences in male and female perceptions of landscape as presented through P3DM",
        "Contact Name": "Liza Debevec, Tracy Baker",
        "Start Date": 2014,
        "End Date": 2015,
        "Country": "Ethiopia",
        "CRP": "WLE "
      },
      "geometry": {
        "type": "Point",
        "coordinates": [
          40.489673,
          9.145
        ]
      }
    },
    {
      "type": "Feature",
      "properties": {
        "ID": 109,
        "StudyID": 70,
        "Name": "Gender roles in rice production",
        "Contact Name": "Maria Alejandra",
        "Start Date": 2013,
        "End Date": 2016,
        "Country": "Bolivia",
        "CRP": "GRISP"
      },
      "geometry": {
        "type": "Point",
        "coordinates": [
          -65.095779,
          -14.378275
        ]
      }
    },
    {
      "type": "Feature",
      "properties": {
        "ID": 110,
        "StudyID": 70,
        "Name": "Gender roles in rice production",
        "Contact Name": "Maria Alejandra",
        "Start Date": 2013,
        "End Date": 2016,
        "Country": "Ecuador",
        "CRP": "GRISP"
      },
      "geometry": {
        "type": "Point",
        "coordinates": [
          -79.91927,
          -1.957484
        ]
      }
    },
    {
      "type": "Feature",
      "properties": {
        "ID": 111,
        "StudyID": 71,
        "Name": "Global Study on Gender Norms, Agency and Innovation in Agricultural Innovation and Natural Resource Management",
        "Contact Name": "Marlene Elias",
        "Start Date": 2014,
        "End Date": 2016,
        "Country": "Kyrgyzstan",
        "CRP": "FTA"
      },
      "geometry": {
        "type": "Point",
        "coordinates": [
          74.766098,
          41.20438
        ]
      }
    },
    {
      "type": "Feature",
      "properties": {
        "ID": 112,
        "StudyID": 72,
        "Name": "Global Study on Gender Norms, Agency and Innovation in Agricultural Innovation and Natural Resource Management",
        "Contact Name": "Marlene Elias",
        "Start Date": 2014,
        "End Date": 2016,
        "Country": "Vietnam",
        "CRP": "A4NH,HT"
      },
      "geometry": {
        "type": "Point",
        "coordinates": [
          108.277199,
          14.058324
        ]
      }
    },
    {
      "type": "Feature",
      "properties": {
        "ID": 113,
        "StudyID": 73,
        "Name": "Innovation in enviromental management and conservation",
        "Contact Name": "Marlene Elias",
        "Start Date": 2014,
        "End Date": 2017,
        "Country": "India",
        "CRP": "FTA"
      },
      "geometry": {
        "type": "Point",
        "coordinates": [
          78.96288,
          20.593684
        ]
      }
    },
    {
      "type": "Feature",
      "properties": {
        "ID": 114,
        "StudyID": 74,
        "Name": "Gender research fellowship programme projects",
        "Contact Name": "Marlene Elias",
        "Start Date": 2013,
        "End Date": 2014,
        "Country": "Cameroon",
        "CRP": "FTA"
      },
      "geometry": {
        "type": "Point",
        "coordinates": [
          12.354722,
          7.369722
        ]
      }
    },
    {
      "type": "Feature",
      "properties": {
        "ID": 115,
        "StudyID": 74,
        "Name": "Gender research fellowship programme projects",
        "Contact Name": "Marlene Elias",
        "Start Date": 2013,
        "End Date": 2014,
        "Country": "India",
        "CRP": "FTA"
      },
      "geometry": {
        "type": "Point",
        "coordinates": [
          78.96288,
          20.593684
        ]
      }
    },
    {
      "type": "Feature",
      "properties": {
        "ID": 116,
        "StudyID": 74,
        "Name": "Gender research fellowship programme projects",
        "Contact Name": "Marlene Elias",
        "Start Date": 2013,
        "End Date": 2014,
        "Country": "Kyrgyzstan",
        "CRP": "FTA"
      },
      "geometry": {
        "type": "Point",
        "coordinates": [
          74.766098,
          41.20438
        ]
      }
    },
    {
      "type": "Feature",
      "properties": {
        "ID": 117,
        "StudyID": 74,
        "Name": "Gender research fellowship programme projects",
        "Contact Name": "Marlene Elias",
        "Start Date": 2013,
        "End Date": 2014,
        "Country": "Malaysia",
        "CRP": "FTA"
      },
      "geometry": {
        "type": "Point",
        "coordinates": [
          101.975766,
          4.210484
        ]
      }
    },
    {
      "type": "Feature",
      "properties": {
        "ID": 118,
        "StudyID": 74,
        "Name": "Gender research fellowship programme projects",
        "Contact Name": "Marlene Elias",
        "Start Date": 2013,
        "End Date": 2014,
        "Country": "Burkina Faso",
        "CRP": "FTA"
      },
      "geometry": {
        "type": "Point",
        "coordinates": [
          -1.561593,
          12.238333
        ]
      }
    },
    {
      "type": "Feature",
      "properties": {
        "ID": 119,
        "StudyID": 75,
        "Name": "Indigenous knowledge of crop reproduction",
        "Contact Name": "Marlene Elias",
        "Start Date": 2014,
        "End Date": 2015,
        "Country": "Ivory Coast",
        "CRP": "FTA"
      },
      "geometry": {
        "type": "Point",
        "coordinates": [
          -5.54708,
          7.539989
        ]
      }
    },
    {
      "type": "Feature",
      "properties": {
        "ID": 120,
        "StudyID": 77,
        "Name": "Gendered patterns of NTFP collection and consumption ",
        "Contact Name": "Marlene Elias",
        "Start Date": "NULL",
        "End Date": "NULL",
        "Country": "Cameroon",
        "CRP": "FTA"
      },
      "geometry": {
        "type": "Point",
        "coordinates": [
          12.354722,
          7.369722
        ]
      }
    },
    {
      "type": "Feature",
      "properties": {
        "ID": 121,
        "StudyID": 78,
        "Name": "Gendered access to and harvesting of?n?r?(Parkia biglobosa)",
        "Contact Name": "Marlene Elias",
        "Start Date": "NULL",
        "End Date": "NULL",
        "Country": "Burkina Faso",
        "CRP": "FTA"
      },
      "geometry": {
        "type": "Point",
        "coordinates": [
          -1.561593,
          12.238333
        ]
      }
    },
    {
      "type": "Feature",
      "properties": {
        "ID": 122,
        "StudyID": 79,
        "Name": "Gendered knowledge and preferences for shea tree (Vitellaria paradoxa)?ethnovarieties ",
        "Contact Name": "Marlene Elias",
        "Start Date": "NULL",
        "End Date": "NULL",
        "Country": "Burkina Faso",
        "CRP": "FTA"
      },
      "geometry": {
        "type": "Point",
        "coordinates": [
          -1.561593,
          12.238333
        ]
      }
    },
    {
      "type": "Feature",
      "properties": {
        "ID": 123,
        "StudyID": 82,
        "Name": "Tropical Fruit Tree project ? component on participatory, gender-responsive research on native fruit tree use and management ",
        "Contact Name": "Marlene Elias",
        "Start Date": "NULL",
        "End Date": "NULL",
        "Country": "Malaysia",
        "CRP": "FTA"
      },
      "geometry": {
        "type": "Point",
        "coordinates": [
          101.975766,
          4.210484
        ]
      }
    },
    {
      "type": "Feature",
      "properties": {
        "ID": 124,
        "StudyID": 82,
        "Name": "Tropical Fruit Tree project ? component on participatory, gender-responsive research on native fruit tree use and management ",
        "Contact Name": "Marlene Elias",
        "Start Date": "NULL",
        "End Date": "NULL",
        "Country": "India",
        "CRP": "FTA"
      },
      "geometry": {
        "type": "Point",
        "coordinates": [
          78.96288,
          20.593684
        ]
      }
    },
    {
      "type": "Feature",
      "properties": {
        "ID": 125,
        "StudyID": 83,
        "Name": "Assessment of changes in gender relations through the Nepal Home Gardens project",
        "Contact Name": "Marlene Elias",
        "Start Date": "NULL",
        "End Date": "NULL",
        "Country": "Nepal",
        "CRP": "FTA"
      },
      "geometry": {
        "type": "Point",
        "coordinates": [
          84.124008,
          28.394857
        ]
      }
    },
    {
      "type": "Feature",
      "properties": {
        "ID": 126,
        "StudyID": 84,
        "Name": "Assessement of changes in gender relations home garden project in Nepal",
        "Contact Name": "Marlene Elias / Miranda Morgan",
        "Start Date": 2014,
        "End Date": 2015,
        "Country": "Nepal",
        "CRP": "FTA,AAS"
      },
      "geometry": {
        "type": "Point",
        "coordinates": [
          84.124008,
          28.394857
        ]
      }
    },
    {
      "type": "Feature",
      "properties": {
        "ID": 127,
        "StudyID": 85,
        "Name": "Case study on key gender factors which characterize nutritional practices in the household and how these factors influence the nutritional status of 0 to 3 year old children (",
        "Contact Name": "Nadeza Amaya, Claudia Babini, Paula Flores",
        "Start Date": "NULL",
        "End Date": "NULL",
        "Country": "Ecuador",
        "CRP": "RTB"
      },
      "geometry": {
        "type": "Point",
        "coordinates": [
          -78.183406,
          -1.831239
        ]
      }
    },
    {
      "type": "Feature",
      "properties": {
        "ID": 128,
        "StudyID": 85,
        "Name": "Case study on key gender factors which characterize nutritional practices in the household and how these factors influence the nutritional status of 0 to 3 year old children (",
        "Contact Name": "Nadeza Amaya, Claudia Babini, Paula Flores",
        "Start Date": "NULL",
        "End Date": "NULL",
        "Country": "Peru",
        "CRP": "RTB"
      },
      "geometry": {
        "type": "Point",
        "coordinates": [
          -75.015152,
          -9.189967
        ]
      }
    },
    {
      "type": "Feature",
      "properties": {
        "ID": 129,
        "StudyID": 85,
        "Name": "Case study on key gender factors which characterize nutritional practices in the household and how these factors influence the nutritional status of 0 to 3 year old children (",
        "Contact Name": "Nadeza Amaya, Claudia Babini, Paula Flores",
        "Start Date": "NULL",
        "End Date": "NULL",
        "Country": "Bolivia",
        "CRP": "RTB"
      },
      "geometry": {
        "type": "Point",
        "coordinates": [
          -63.588653,
          -16.290154
        ]
      }
    },
    {
      "type": "Feature",
      "properties": {
        "ID": 130,
        "StudyID": 86,
        "Name": "Sex disaggregated analysis of a 5 year data base on Participatory varietal selection in Peru",
        "Contact Name": "Nadezda Amaya",
        "Start Date": "NULL",
        "End Date": "NULL",
        "Country": "Peru",
        "CRP": "RTB"
      },
      "geometry": {
        "type": "Point",
        "coordinates": [
          -75.015152,
          -9.189967
        ]
      }
    },
    {
      "type": "Feature",
      "properties": {
        "ID": 131,
        "StudyID": 87,
        "Name": "Global Study on Gender Norms, Agency and Innovation in Agricultural Innovation and Natural Resource Management",
        "Contact Name": "Netsayi Mudege",
        "Start Date": "NULL",
        "End Date": "NULL",
        "Country": "Malawi",
        "CRP": "RTB"
      },
      "geometry": {
        "type": "Point",
        "coordinates": [
          34.301525,
          -13.254308
        ]
      }
    },
    {
      "type": "Feature",
      "properties": {
        "ID": 132,
        "StudyID": 87,
        "Name": "Global Study on Gender Norms, Agency and Innovation in Agricultural Innovation and Natural Resource Management",
        "Contact Name": "Netsayi Mudege",
        "Start Date": "NULL",
        "End Date": "NULL",
        "Country": "Uganda",
        "CRP": "RTB"
      },
      "geometry": {
        "type": "Point",
        "coordinates": [
          32.290275,
          1.373333
        ]
      }
    },
    {
      "type": "Feature",
      "properties": {
        "ID": 133,
        "StudyID": 88,
        "Name": "A study on seed production/ multiplication/dissemination experiences from a gender perspective",
        "Contact Name": "Netsayi N Mudege, Gordon Prain",
        "Start Date": "NULL",
        "End Date": "NULL",
        "Country": "Bangladesh",
        "CRP": "RTB"
      },
      "geometry": {
        "type": "Point",
        "coordinates": [
          90.356331,
          23.684994
        ]
      }
    },
    {
      "type": "Feature",
      "properties": {
        "ID": 134,
        "StudyID": 88,
        "Name": "A study on seed production/ multiplication/dissemination experiences from a gender perspective",
        "Contact Name": "Netsayi N Mudege, Gordon Prain",
        "Start Date": "NULL",
        "End Date": "NULL",
        "Country": "Malawi",
        "CRP": "RTB"
      },
      "geometry": {
        "type": "Point",
        "coordinates": [
          34.301525,
          -13.254308
        ]
      }
    },
    {
      "type": "Feature",
      "properties": {
        "ID": 135,
        "StudyID": 94,
        "Name": "Women empowerment in rural south asia",
        "Contact Name": "Padmaja Ravula",
        "Start Date": 2012,
        "End Date": 2014,
        "Country": "India",
        "CRP": "PIM"
      },
      "geometry": {
        "type": "Point",
        "coordinates": [
          78.96288,
          20.593684
        ]
      }
    },
    {
      "type": "Feature",
      "properties": {
        "ID": 136,
        "StudyID": 95,
        "Name": "Why has semi-arid tropics nutrition not imporved with incomes",
        "Contact Name": "Padmaja Ravula",
        "Start Date": "Ongoing",
        "End Date": "NULL",
        "Country": "India",
        "CRP": "PIM, DC, GL"
      },
      "geometry": {
        "type": "Point",
        "coordinates": [
          78.96288,
          20.593684
        ]
      }
    },
    {
      "type": "Feature",
      "properties": {
        "ID": 137,
        "StudyID": 96,
        "Name": "Women, sanitation and nutrition - The case of India",
        "Contact Name": "Padmaja Ravula",
        "Start Date": "Planned",
        "End Date": "NULL",
        "Country": "India",
        "CRP": "PIM, DC, GL"
      },
      "geometry": {
        "type": "Point",
        "coordinates": [
          78.96288,
          20.593684
        ]
      }
    },
    {
      "type": "Feature",
      "properties": {
        "ID": 138,
        "StudyID": 97,
        "Name": "Social networks and technology adoption",
        "Contact Name": "Padmaja Ravula",
        "Start Date": "Completed",
        "End Date": "NULL",
        "Country": "India",
        "CRP": "GL, PIM"
      },
      "geometry": {
        "type": "Point",
        "coordinates": [
          78.96288,
          20.593684
        ]
      }
    },
    {
      "type": "Feature",
      "properties": {
        "ID": 139,
        "StudyID": 98,
        "Name": "Womens assets and decision making",
        "Contact Name": "Padmaja Ravula",
        "Start Date": "Ongoing",
        "End Date": "NULL",
        "Country": "India",
        "CRP": "NULL"
      },
      "geometry": {
        "type": "Point",
        "coordinates": [
          78.96288,
          20.593684
        ]
      }
    },
    {
      "type": "Feature",
      "properties": {
        "ID": 140,
        "StudyID": 99,
        "Name": "Case study Promoting women?s participation in forest tenure reform processes in Odesha, India",
        "Contact Name": "Priyanka Bhalla ",
        "Start Date": "NULL",
        "End Date": "NULL",
        "Country": "India",
        "CRP": "FTA"
      },
      "geometry": {
        "type": "Point",
        "coordinates": [
          78.96288,
          20.593684
        ]
      }
    },
    {
      "type": "Feature",
      "properties": {
        "ID": 141,
        "StudyID": 101,
        "Name": "Metrics and indicators for tracking GRiSP (MISTIG)",
        "Contact Name": "Sonia Akter",
        "Start Date": 2014,
        "End Date": 2015,
        "Country": "Bangladesh",
        "CRP": "GRISP"
      },
      "geometry": {
        "type": "Point",
        "coordinates": [
          90.356331,
          23.684994
        ]
      }
    },
    {
      "type": "Feature",
      "properties": {
        "ID": 142,
        "StudyID": 101,
        "Name": "Metrics and indicators for tracking GRiSP (MISTIG)",
        "Contact Name": "Sonia Akter",
        "Start Date": 2014,
        "End Date": 2015,
        "Country": "India",
        "CRP": "GRISP"
      },
      "geometry": {
        "type": "Point",
        "coordinates": [
          78.96288,
          20.593684
        ]
      }
    },
    {
      "type": "Feature",
      "properties": {
        "ID": 143,
        "StudyID": 101,
        "Name": "Metrics and indicators for tracking GRiSP (MISTIG)",
        "Contact Name": "Sonia Akter",
        "Start Date": 2014,
        "End Date": 2015,
        "Country": "Philippines",
        "CRP": "GRISP"
      },
      "geometry": {
        "type": "Point",
        "coordinates": [
          121.774017,
          12.879721
        ]
      }
    },
    {
      "type": "Feature",
      "properties": {
        "ID": 144,
        "StudyID": 101,
        "Name": "Metrics and indicators for tracking GRiSP (MISTIG)",
        "Contact Name": "Sonia Akter",
        "Start Date": 2014,
        "End Date": 2015,
        "Country": "Vietnam",
        "CRP": "GRISP"
      },
      "geometry": {
        "type": "Point",
        "coordinates": [
          108.277199,
          14.058324
        ]
      }
    },
    {
      "type": "Feature",
      "properties": {
        "ID": 145,
        "StudyID": 101,
        "Name": "Metrics and indicators for tracking GRiSP (MISTIG)",
        "Contact Name": "Sonia Akter",
        "Start Date": 2014,
        "End Date": 2015,
        "Country": "Myanmar",
        "CRP": "GRISP"
      },
      "geometry": {
        "type": "Point",
        "coordinates": [
          95.956223,
          21.913965
        ]
      }
    },
    {
      "type": "Feature",
      "properties": {
        "ID": 146,
        "StudyID": 102,
        "Name": "Qualitative measure of women empowerment in Agriculture",
        "Contact Name": "Sonia Akter",
        "Start Date": 2014,
        "End Date": 2015,
        "Country": "Indonesia",
        "CRP": "GRISP"
      },
      "geometry": {
        "type": "Point",
        "coordinates": [
          113.921327,
          -0.789275
        ]
      }
    },
    {
      "type": "Feature",
      "properties": {
        "ID": 147,
        "StudyID": 102,
        "Name": "Qualitative measure of women empowerment in Agriculture",
        "Contact Name": "Sonia Akter",
        "Start Date": 2014,
        "End Date": 2015,
        "Country": "Philippines",
        "CRP": "GRISP"
      },
      "geometry": {
        "type": "Point",
        "coordinates": [
          121.774017,
          12.879721
        ]
      }
    },
    {
      "type": "Feature",
      "properties": {
        "ID": 148,
        "StudyID": 102,
        "Name": "Qualitative measure of women empowerment in Agriculture",
        "Contact Name": "Sonia Akter",
        "Start Date": 2014,
        "End Date": 2015,
        "Country": "Myanmar",
        "CRP": "GRISP"
      },
      "geometry": {
        "type": "Point",
        "coordinates": [
          95.956223,
          21.913965
        ]
      }
    },
    {
      "type": "Feature",
      "properties": {
        "ID": 149,
        "StudyID": 103,
        "Name": "Farmers preferences for index beased weather insurance in Bangladesh",
        "Contact Name": "Sonia Akter",
        "Start Date": 2014,
        "End Date": 2015,
        "Country": "Bangladesh",
        "CRP": "GRISP"
      },
      "geometry": {
        "type": "Point",
        "coordinates": [
          90.356331,
          23.684994
        ]
      }
    },
    {
      "type": "Feature",
      "properties": {
        "ID": 150,
        "StudyID": 104,
        "Name": "Gender disaggregated impacts of farm mechanization",
        "Contact Name": "Sonia Akter",
        "Start Date": 2014,
        "End Date": 2015,
        "Country": "Bangladesh",
        "CRP": "GRISP"
      },
      "geometry": {
        "type": "Point",
        "coordinates": [
          90.356331,
          23.684994
        ]
      }
    },
    {
      "type": "Feature",
      "properties": {
        "ID": 151,
        "StudyID": 105,
        "Name": "Preferences analysis of stress tolerant rice varieties",
        "Contact Name": "Sonia Akter",
        "Start Date": 2013,
        "End Date": 2014,
        "Country": "India",
        "CRP": "GRISP"
      },
      "geometry": {
        "type": "Point",
        "coordinates": [
          78.96288,
          20.593684
        ]
      }
    },
    {
      "type": "Feature",
      "properties": {
        "ID": 152,
        "StudyID": 105,
        "Name": "Preferences analysis of stress tolerant rice varieties",
        "Contact Name": "Sonia Akter",
        "Start Date": 2013,
        "End Date": 2014,
        "Country": "Nepal",
        "CRP": "GRISP"
      },
      "geometry": {
        "type": "Point",
        "coordinates": [
          84.124008,
          28.394857
        ]
      }
    },
    {
      "type": "Feature",
      "properties": {
        "ID": 153,
        "StudyID": 105,
        "Name": "Preferences analysis of stress tolerant rice varieties",
        "Contact Name": "Sonia Akter",
        "Start Date": 2013,
        "End Date": 2014,
        "Country": "Bangladesh",
        "CRP": "GRISP"
      },
      "geometry": {
        "type": "Point",
        "coordinates": [
          90.356331,
          23.684994
        ]
      }
    },
    {
      "type": "Feature",
      "properties": {
        "ID": 154,
        "StudyID": 106,
        "Name": "The impacts of ensuring women's access to seeds and seed preservation training",
        "Contact Name": "Sonia Akter",
        "Start Date": 2013,
        "End Date": 2014,
        "Country": "India",
        "CRP": "GRISP"
      },
      "geometry": {
        "type": "Point",
        "coordinates": [
          78.96288,
          20.593684
        ]
      }
    },
    {
      "type": "Feature",
      "properties": {
        "ID": 155,
        "StudyID": 106,
        "Name": "The impacts of ensuring women's access to seeds and seed preservation training",
        "Contact Name": "Sonia Akter",
        "Start Date": 2013,
        "End Date": 2014,
        "Country": "Nepal",
        "CRP": "GRISP"
      },
      "geometry": {
        "type": "Point",
        "coordinates": [
          84.124008,
          28.394857
        ]
      }
    },
    {
      "type": "Feature",
      "properties": {
        "ID": 156,
        "StudyID": 106,
        "Name": "The impacts of ensuring women's access to seeds and seed preservation training",
        "Contact Name": "Sonia Akter",
        "Start Date": 2013,
        "End Date": 2014,
        "Country": "Bangladesh",
        "CRP": "GRISP"
      },
      "geometry": {
        "type": "Point",
        "coordinates": [
          90.356331,
          23.684994
        ]
      }
    },
    {
      "type": "Feature",
      "properties": {
        "ID": 157,
        "StudyID": 107,
        "Name": "Women entrepreneurship and self-help group dynamics in Bihar",
        "Contact Name": "Sonia Akter",
        "Start Date": 2014,
        "End Date": 2015,
        "Country": "India",
        "CRP": "GRISP"
      },
      "geometry": {
        "type": "Point",
        "coordinates": [
          85.313119,
          25.096074
        ]
      }
    },
    {
      "type": "Feature",
      "properties": {
        "ID": 158,
        "StudyID": 108,
        "Name": "Gender and Food Safety in informal value chains",
        "Contact Name": "Sophie Theis",
        "Start Date": 2014,
        "End Date": 2015,
        "Country": "Cote d'Ivoire",
        "CRP": "A4NH"
      },
      "geometry": {
        "type": "Point",
        "coordinates": [
          -5.54708,
          7.539989
        ]
      }
    },
    {
      "type": "Feature",
      "properties": {
        "ID": 159,
        "StudyID": 108,
        "Name": "Gender and Food Safety in informal value chains",
        "Contact Name": "Sophie Theis",
        "Start Date": 2014,
        "End Date": 2015,
        "Country": "Ghana",
        "CRP": "A4NH"
      },
      "geometry": {
        "type": "Point",
        "coordinates": [
          -1.023194,
          7.946527
        ]
      }
    },
    {
      "type": "Feature",
      "properties": {
        "ID": 160,
        "StudyID": 108,
        "Name": "Gender and Food Safety in informal value chains",
        "Contact Name": "Sophie Theis",
        "Start Date": 2014,
        "End Date": 2015,
        "Country": "Kenya",
        "CRP": "A4NH"
      },
      "geometry": {
        "type": "Point",
        "coordinates": [
          37.906193,
          -0.023559
        ]
      }
    },
    {
      "type": "Feature",
      "properties": {
        "ID": 161,
        "StudyID": 108,
        "Name": "Gender and Food Safety in informal value chains",
        "Contact Name": "Sophie Theis",
        "Start Date": 2014,
        "End Date": 2015,
        "Country": "Mali",
        "CRP": "A4NH"
      },
      "geometry": {
        "type": "Point",
        "coordinates": [
          -3.996166,
          17.570692
        ]
      }
    },
    {
      "type": "Feature",
      "properties": {
        "ID": 162,
        "StudyID": 108,
        "Name": "Gender and Food Safety in informal value chains",
        "Contact Name": "Sophie Theis",
        "Start Date": 2014,
        "End Date": 2015,
        "Country": "Mozambique",
        "CRP": "A4NH"
      },
      "geometry": {
        "type": "Point",
        "coordinates": [
          35.529562,
          -18.665695
        ]
      }
    },
    {
      "type": "Feature",
      "properties": {
        "ID": 163,
        "StudyID": 108,
        "Name": "Gender and Food Safety in informal value chains",
        "Contact Name": "Sophie Theis",
        "Start Date": 2014,
        "End Date": 2015,
        "Country": "Nigeria",
        "CRP": "A4NH"
      },
      "geometry": {
        "type": "Point",
        "coordinates": [
          8.675277,
          9.081999
        ]
      }
    },
    {
      "type": "Feature",
      "properties": {
        "ID": 164,
        "StudyID": 108,
        "Name": "Gender and Food Safety in informal value chains",
        "Contact Name": "Sophie Theis",
        "Start Date": 2014,
        "End Date": 2015,
        "Country": "Tanzania",
        "CRP": "A4NH"
      },
      "geometry": {
        "type": "Point",
        "coordinates": [
          34.888822,
          -6.369028
        ]
      }
    },
    {
      "type": "Feature",
      "properties": {
        "ID": 165,
        "StudyID": 108,
        "Name": "Gender and Food Safety in informal value chains",
        "Contact Name": "Sophie Theis",
        "Start Date": 2014,
        "End Date": 2015,
        "Country": "Vietnam",
        "CRP": "A4NH"
      },
      "geometry": {
        "type": "Point",
        "coordinates": [
          108.277199,
          14.058324
        ]
      }
    },
    {
      "type": "Feature",
      "properties": {
        "ID": 166,
        "StudyID": 108,
        "Name": "Gender and Food Safety in informal value chains",
        "Contact Name": "Sophie Theis",
        "Start Date": 2014,
        "End Date": 2015,
        "Country": "South Africa",
        "CRP": "A4NH"
      },
      "geometry": {
        "type": "Point",
        "coordinates": [
          22.937506,
          -30.559482
        ]
      }
    },
    {
      "type": "Feature",
      "properties": {
        "ID": 167,
        "StudyID": 109,
        "Name": "Improving water use for dry season agriculture by marginal and tenant farmers in the eastern gangetic plains",
        "Contact Name": "Stephanie  Leder",
        "Start Date": 2014,
        "End Date": 2018,
        "Country": "Bangladesh",
        "CRP": "WLE"
      },
      "geometry": {
        "type": "Point",
        "coordinates": [
          90.356331,
          23.684994
        ]
      }
    },
    {
      "type": "Feature",
      "properties": {
        "ID": 168,
        "StudyID": 109,
        "Name": "Improving water use for dry season agriculture by marginal and tenant farmers in the eastern gangetic plains",
        "Contact Name": "Stephanie  Leder",
        "Start Date": 2014,
        "End Date": 2018,
        "Country": "India",
        "CRP": "WLE"
      },
      "geometry": {
        "type": "Point",
        "coordinates": [
          85.313119,
          25.096074
        ]
      }
    },
    {
      "type": "Feature",
      "properties": {
        "ID": 169,
        "StudyID": 109,
        "Name": "Improving water use for dry season agriculture by marginal and tenant farmers in the eastern gangetic plains",
        "Contact Name": "Stephanie  Leder",
        "Start Date": 2014,
        "End Date": 2018,
        "Country": "Nepal",
        "CRP": "WLE"
      },
      "geometry": {
        "type": "Point",
        "coordinates": [
          84.124008,
          28.394857
        ]
      }
    },
    {
      "type": "Feature",
      "properties": {
        "ID": 170,
        "StudyID": 110,
        "Name": "Developing climate resiliant livelihoods for local communities through public-private partnership for 500,00 for people in western Nepal that suffer from climate extremes and diabetes",
        "Contact Name": "Stephanie  Leder",
        "Start Date": 2015,
        "End Date": 2018,
        "Country": "Nepal",
        "CRP": "WLE"
      },
      "geometry": {
        "type": "Point",
        "coordinates": [
          84.124008,
          28.394857
        ]
      }
    },
    {
      "type": "Feature",
      "properties": {
        "ID": 171,
        "StudyID": 111,
        "Name": "Gender inclusive climate change related policies in Latin America",
        "Contact Name": "Tatiana Gumucio",
        "Start Date": 2014,
        "End Date": 2017,
        "Country": "Costa Rica",
        "CRP": "CCAFS"
      },
      "geometry": {
        "type": "Point",
        "coordinates": [
          -83.753428,
          9.748917
        ]
      }
    },
    {
      "type": "Feature",
      "properties": {
        "ID": 172,
        "StudyID": 111,
        "Name": "Gender inclusive climate change related policies in Latin America",
        "Contact Name": "Tatiana Gumucio",
        "Start Date": 2014,
        "End Date": 2017,
        "Country": "El Salvador",
        "CRP": "CCAFS"
      },
      "geometry": {
        "type": "Point",
        "coordinates": [
          -88.89653,
          13.794185
        ]
      }
    },
    {
      "type": "Feature",
      "properties": {
        "ID": 173,
        "StudyID": 111,
        "Name": "Gender inclusive climate change related policies in Latin America",
        "Contact Name": "Tatiana Gumucio",
        "Start Date": 2014,
        "End Date": 2017,
        "Country": "Guatemela",
        "CRP": "CCAFS"
      },
      "geometry": {
        "type": "Point",
        "coordinates": [
          -90.230759,
          15.783471
        ]
      }
    },
    {
      "type": "Feature",
      "properties": {
        "ID": 174,
        "StudyID": 111,
        "Name": "Gender inclusive climate change related policies in Latin America",
        "Contact Name": "Tatiana Gumucio",
        "Start Date": 2014,
        "End Date": 2017,
        "Country": "Honduras",
        "CRP": "CCAFS"
      },
      "geometry": {
        "type": "Point",
        "coordinates": [
          -86.241905,
          15.199999
        ]
      }
    },
    {
      "type": "Feature",
      "properties": {
        "ID": 175,
        "StudyID": 111,
        "Name": "Gender inclusive climate change related policies in Latin America",
        "Contact Name": "Tatiana Gumucio",
        "Start Date": 2014,
        "End Date": 2017,
        "Country": "Nicaragua",
        "CRP": "CCAFS"
      },
      "geometry": {
        "type": "Point",
        "coordinates": [
          -85.207229,
          12.865416
        ]
      }
    },
    {
      "type": "Feature",
      "properties": {
        "ID": 176,
        "StudyID": 111,
        "Name": "Gender inclusive climate change related policies in Latin America",
        "Contact Name": "Tatiana Gumucio",
        "Start Date": 2014,
        "End Date": 2017,
        "Country": "Peru",
        "CRP": "CCAFS"
      },
      "geometry": {
        "type": "Point",
        "coordinates": [
          -75.015152,
          -9.189967
        ]
      }
    },
    {
      "type": "Feature",
      "properties": {
        "ID": 177,
        "StudyID": 111,
        "Name": "Gender inclusive climate change related policies in Latin America",
        "Contact Name": "Tatiana Gumucio",
        "Start Date": 2014,
        "End Date": 2017,
        "Country": "Colombia",
        "CRP": "CCAFS"
      },
      "geometry": {
        "type": "Point",
        "coordinates": [
          -74.297333,
          4.570868
        ]
      }
    },
    {
      "type": "Feature",
      "properties": {
        "ID": 178,
        "StudyID": 116,
        "Name": "Global Study on Gender Norms, Agency and Innovation in Agricultural Innovation and Natural Resource Management",
        "Contact Name": "Wenda Bauchspies",
        "Start Date": 2014,
        "End Date": 2015,
        "Country": "Burkina Faso",
        "CRP": "DC"
      },
      "geometry": {
        "type": "Point",
        "coordinates": [
          -1.561593,
          12.238333
        ]
      }
    },
    {
      "type": "Feature",
      "properties": {
        "ID": 179,
        "StudyID": 116,
        "Name": "Global Study on Gender Norms, Agency and Innovation in Agricultural Innovation and Natural Resource Management",
        "Contact Name": "Wenda Bauchspies",
        "Start Date": 2014,
        "End Date": 2015,
        "Country": "Niger",
        "CRP": "DC"
      },
      "geometry": {
        "type": "Point",
        "coordinates": [
          8.081666,
          17.607789
        ]
      }
    },
    {
      "type": "Feature",
      "properties": {
        "ID": 180,
        "StudyID": 116,
        "Name": "Global Study on Gender Norms, Agency and Innovation in Agricultural Innovation and Natural Resource Management",
        "Contact Name": "Wenda Bauchspies",
        "Start Date": 2014,
        "End Date": 2015,
        "Country": "Mali",
        "CRP": "DC"
      },
      "geometry": {
        "type": "Point",
        "coordinates": [
          -3.996166,
          17.570692
        ]
      }
    },
    {
      "type": "Feature",
      "properties": {
        "ID": 181,
        "StudyID": 117,
        "Name": "Weeding practises and technology of sorghum and millets",
        "Contact Name": "Wenda Bauchspies",
        "Start Date": 2014,
        "End Date": 2015,
        "Country": "Niger",
        "CRP": "DC"
      },
      "geometry": {
        "type": "Point",
        "coordinates": [
          8.081666,
          17.607789
        ]
      }
    },
    {
      "type": "Feature",
      "properties": {
        "ID": 182,
        "StudyID": 117,
        "Name": "Weeding practises and technology of sorghum and millets",
        "Contact Name": "Wenda Bauchspies",
        "Start Date": 2014,
        "End Date": 2015,
        "Country": "Mali",
        "CRP": "DC"
      },
      "geometry": {
        "type": "Point",
        "coordinates": [
          -3.996166,
          17.570692
        ]
      }
    },
    {
      "type": "Feature",
      "properties": {
        "ID": 183,
        "StudyID": 118,
        "Name": "Evaluation of whole grain usage by women",
        "Contact Name": "Wenda Bauchspies",
        "Start Date": 2014,
        "End Date": 2014,
        "Country": "Niger",
        "CRP": "DC"
      },
      "geometry": {
        "type": "Point",
        "coordinates": [
          8.081666,
          17.607789
        ]
      }
    },
    {
      "type": "Feature",
      "properties": {
        "ID": 184,
        "StudyID": 118,
        "Name": "Evaluation of whole grain usage by women",
        "Contact Name": "Wenda Bauchspies",
        "Start Date": 2014,
        "End Date": 2014,
        "Country": "Mali",
        "CRP": "DC"
      },
      "geometry": {
        "type": "Point",
        "coordinates": [
          -3.996166,
          17.570692
        ]
      }
    },
    {
      "type": "Feature",
      "properties": {
        "ID": 185,
        "StudyID": 119,
        "Name": "Gender equality in climate change adaptation policies",
        "Contact Name": "Wendy Okolo",
        "Start Date": 2014,
        "End Date": 2017,
        "Country": "Tanzania",
        "CRP": "CCAFS"
      },
      "geometry": {
        "type": "Point",
        "coordinates": [
          34.888822,
          -6.369028
        ]
      }
    },
    {
      "type": "Feature",
      "properties": {
        "ID": 186,
        "StudyID": 119,
        "Name": "Gender equality in climate change adaptation policies",
        "Contact Name": "Wendy Okolo",
        "Start Date": 2014,
        "End Date": 2017,
        "Country": "Uganda",
        "CRP": "CCAFS"
      },
      "geometry": {
        "type": "Point",
        "coordinates": [
          32.290275,
          1.373333
        ]
      }
    },
    {
      "type": "Feature",
      "properties": {
        "ID": 187,
        "StudyID": 120,
        "Name": "Gender-responsive innovations in Livestock and Barley Production",
        "Contact Name": "Dina Najjar",
        "Start Date": "NULL",
        "End Date": "NULL",
        "Country": "India",
        "CRP": "DS"
      },
      "geometry": {
        "type": "Point",
        "coordinates": [
          74.217933,
          27.023804
        ]
      }
    },
    {
      "type": "Feature",
      "properties": {
        "ID": 188,
        "StudyID": 121,
        "Name": "He Said, She Said:? Exploring Patterns of Agreement\nin Sex-Disaggregated Datasets from Nepal and Bangladesh",
        "Contact Name": "Caitlin Kieran",
        "Start Date": 2014,
        "End Date": 2016,
        "Country": "Nepal",
        "CRP": "PIM"
      },
      "geometry": {
        "type": "Point",
        "coordinates": [
          84.124008,
          28.394857
        ]
      }
    },
    {
      "type": "Feature",
      "properties": {
        "ID": 189,
        "StudyID": 121,
        "Name": "He Said, She Said:? Exploring Patterns of Agreement\nin Sex-Disaggregated Datasets from Nepal and Bangladesh",
        "Contact Name": "Caitlin Kieran",
        "Start Date": 2014,
        "End Date": 2016,
        "Country": "Bangladesh",
        "CRP": "PIM"
      },
      "geometry": {
        "type": "Point",
        "coordinates": [
          90.356331,
          23.684994
        ]
      }
    },
    {
      "type": "Feature",
      "properties": {
        "ID": 190,
        "StudyID": 122,
        "Name": "Evaluation of the gender-disaggregated impact of extension on agricultural productivity: Malawi case study.",
        "Contact Name": "Catherine Ragasa",
        "Start Date": "NULL",
        "End Date": "NULL",
        "Country": "Malawi",
        "CRP": "PIM"
      },
      "geometry": {
        "type": "Point",
        "coordinates": [
          34.301525,
          -13.254308
        ]
      }
    },
    {
      "type": "Feature",
      "properties": {
        "ID": 191,
        "StudyID": 127,
        "Name": "Productivity enhancing impacts of social protection",
        "Contact Name": "NULL",
        "Start Date": "NULL",
        "End Date": "NULL",
        "Country": "Bangladesh",
        "CRP": "PIM"
      },
      "geometry": {
        "type": "Point",
        "coordinates": [
          90.356331,
          23.684994
        ]
      }
    },
    {
      "type": "Feature",
      "properties": {
        "ID": 192,
        "StudyID": 128,
        "Name": "Expanding the evidence base on gender-sensitive social protection in West Africa",
        "Contact Name": "NULL",
        "Start Date": "NULL",
        "End Date": "NULL",
        "Country": "West Africa",
        "CRP": "PIM"
      },
      "geometry": {
        "type": "Point",
        "coordinates": [
          -2.460415,
          13.531665
        ]
      }
    },
    {
      "type": "Feature",
      "properties": {
        "ID": 193,
        "StudyID": 132,
        "Name": "Womens control over crops and livestock",
        "Contact Name": "Sabine Homann-Kee Tui",
        "Start Date": 2014,
        "End Date": 2014,
        "Country": "Zimbabwe",
        "CRP": "PIM, DS"
      },
      "geometry": {
        "type": "Point",
        "coordinates": [
          29.011076,
          -20.939823
        ]
      }
    },
    {
      "type": "Feature",
      "properties": {
        "ID": 194,
        "StudyID": 133,
        "Name": "Household Gender preferences along the cowpea value chain",
        "Contact Name": "Therese Gondwe",
        "Start Date": 2015,
        "End Date": 2016,
        "Country": "Zambia",
        "CRP": "GL"
      },
      "geometry": {
        "type": "Point",
        "coordinates": [
          31.992808,
          -13.805619
        ]
      }
    },
    {
      "type": "Feature",
      "properties": {
        "ID": 195,
        "StudyID": 134,
        "Name": "Gender facts for climate change mitigation actions on the Andean Agriculture of Peru - NAMA Andes",
        "Contact Name": "Cecilia Turin, Maria Montenegro",
        "Start Date": 2014,
        "End Date": 2015,
        "Country": "Peru",
        "CRP": "CCAFS"
      },
      "geometry": {
        "type": "Point",
        "coordinates": [
          -75.341218,
          -11.335798
        ]
      }
    },
    {
      "type": "Feature",
      "properties": {
        "ID": 256,
        "StudyID": 1,
        "Name": "Global Study on Gender Norms, Agency and Innovation in Agricultural Innovation and Natural Resource Management",
        "Contact Name": "Amare Tegbaru",
        "Start Date": 2015,
        "End Date": 2015,
        "Country": "Nigeria",
        "CRP": "HT"
      },
      "geometry": {
        "type": "Point",
        "coordinates": [
          3.419553,
          8.119567
        ]
      }
    },
    {
      "type": "Feature",
      "properties": {
        "ID": 257,
        "StudyID": 54,
        "Name": "Playing out of transformative Adaptations in East Africa",
        "Contact Name": "Jennifer Twyman",
        "Start Date": 2012,
        "End Date": 2013,
        "Country": "Tanzania",
        "CRP": "CCAFS"
      },
      "geometry": {
        "type": "Point",
        "coordinates": [
          38.290218,
          -4.798667
        ]
      }
    },
    {
      "type": "Feature",
      "properties": {
        "ID": 258,
        "StudyID": 55,
        "Name": "Adaptation to Climate Change in the Rio Piedras Watershed in Colombia ",
        "Contact Name": "Jennifer Twyman",
        "Start Date": 2012,
        "End Date": "NULL",
        "Country": "Colombia",
        "CRP": "CCAFS"
      },
      "geometry": {
        "type": "Point",
        "coordinates": [
          -76.77916,
          2.57301
        ]
      }
    },
    {
      "type": "Feature",
      "properties": {
        "ID": 259,
        "StudyID": 56,
        "Name": "CCAFS gender survey",
        "Contact Name": "Jennifer Twyman, Claudia Ringler",
        "Start Date": 2012,
        "End Date": "NULL",
        "Country": "Kenya",
        "CRP": "CCAFS"
      },
      "geometry": {
        "type": "Point",
        "coordinates": [
          37.63334,
          -1.788625
        ]
      }
    },
    {
      "type": "Feature",
      "properties": {
        "ID": 260,
        "StudyID": 70,
        "Name": "Gender roles in rice production",
        "Contact Name": "Maria Alejandra",
        "Start Date": 2013,
        "End Date": 2016,
        "Country": "Ecuador",
        "CRP": "GRISP"
      },
      "geometry": {
        "type": "Point",
        "coordinates": [
          -79.470389,
          -1.419172
        ]
      }
    },
    {
      "type": "Feature",
      "properties": {
        "ID": 261,
        "StudyID": 70,
        "Name": "Gender roles in rice production",
        "Contact Name": "Maria Alejandra",
        "Start Date": 2013,
        "End Date": 2016,
        "Country": "Ecuador",
        "CRP": "GRISP"
      },
      "geometry": {
        "type": "Point",
        "coordinates": [
          -79.829674,
          -3.445479
        ]
      }
    },
    {
      "type": "Feature",
      "properties": {
        "ID": 262,
        "StudyID": 70,
        "Name": "Gender roles in rice production",
        "Contact Name": "Maria Alejandra",
        "Start Date": 2013,
        "End Date": 2016,
        "Country": "Ecuador",
        "CRP": "GRISP"
      },
      "geometry": {
        "type": "Point",
        "coordinates": [
          -79.91927,
          -0.741653
        ]
      }
    },
    {
      "type": "Feature",
      "properties": {
        "ID": 263,
        "StudyID": 70,
        "Name": "Gender roles in rice production",
        "Contact Name": "Maria Alejandra",
        "Start Date": 2013,
        "End Date": 2016,
        "Country": "Bolivia",
        "CRP": "GRISP"
      },
      "geometry": {
        "type": "Point",
        "coordinates": [
          -66.165322,
          -17.413977
        ]
      }
    },